id,name.local,name.en,name.slug,code.id,geo.lat,geo.lon
1664816,ບວກ,Ban Bouak,ban-bouak-1664816,1664816,20.015,104.018
1952777,Ban Choumkong,Ban Choumkong,ban-choumkong-1952777,1952777,19.966,104.089
1664595,ແດນດິນ,Ban Dendin,ban-dendin-1664595,1664595,19.867,104.017
1954178,Ban Dokkham,Ban Dokkham,ban-dokkham-1954178,1954178,20.174,103.801
1664558,ໂດນ,Ban Don,ban-don-1664558,1664558,19.868,104.01
1664525,ດົງ,Ban Dong,ban-dong-1664525,1664525,20.066,103.95
1664340,Ban Ekpong-Lin,Ban Ekpong-Lin,ban-ekpong-lin-1664340,1664340,19.933,104.033
1664263,Ban Gnotpiak,Ban Gnotpiak,ban-gnotpiak-1664263,1664263,19.906,103.988
1956946,Ban Gnottao,Ban Gnottao,ban-gnottao-1956946,1956946,20.065,104.06
1664219,ຫ່າງ,Ban Hang,ban-hang-1664219,1664219,19.917,103.867
1664174,Ban Hat Hêng,Ban Hat Heng,ban-hat-heng-1664174,1664174,20.2,103.9
1954274,ຫາດຫລີ,Ban Hatli,ban-hatli-1954274,1954274,20.003,103.833
1664109,Ban Hattôp,Ban Hattop,ban-hattop-1664109,1664109,20.033,103.7
1952765,Ban Hinpèn,Ban Hinpen,ban-hinpen-1952765,1952765,19.947,104.046
1954243,ໂຮມຊາຍ,Ban Homsay,ban-homsay-1954243,1954243,20.068,103.846
1954257,ໂຮມທອງ,Ban Homthong,ban-homthong-1954257,1954257,20.044,103.605
1952793,Ban Hông-Oy,Ban Hong-Oy,ban-hong-oy-1952793,1952793,19.992,104.065
1657121,Ban Houamuang,Ban Houamuang,ban-houamuang-1657121,1657121,20.24,103.595
1661381,ຫົວຊຽງ,Ban Houamuang,ban-houamuang-1661381,1661381,20.167,103.814
1954241,Ban Houaphou,Ban Houaphou,ban-houaphou-1954241,1954241,20.069,103.701
1663965,ຫົວຊຽງ,Ban Houaxiang,ban-houaxiang-1663965,1663965,20.206,103.837
1663924,ຫ້ວຍໃຫມ່,Ban Houay Eng,ban-houay-eng-1663924,1663924,20.033,103.85
1663642,Ban Houay Sada,Ban Houay Sada,ban-houay-sada-1663642,1663642,20.033,103.967
1954261,ຫ້ວຍໃຫມ່,Ban Houay-Mai,ban-houay-mai-1954261,1954261,20.027,103.802
1664034,ຫ້ວຍເຫນືອ,Ban Houay-Nua,ban-houay-nua-1664034,1664034,20.176,103.692
1663767,Ban Houaychalot,Ban Houaychalot,ban-houaychalot-1663767,1663767,19.907,103.89
1952317,Ban Houaychalot,Ban Houaychalot,ban-houaychalot-1952317,1952317,19.907,103.889
1663552,Ban Houaychiang,Ban Houaychiang,ban-houaychiang-1663552,1663552,20.053,104.125
1954190,Ban Houaygnôm,Ban Houaygnom,ban-houaygnom-1954190,1954190,20.155,103.663
1663912,Ban Houayhai,Ban Houayhai,ban-houayhai-1663912,1663912,19.998,103.926
1954212,ຫ້ວຍຫມູນ,Ban Houayhia,ban-houayhia-1954212,1954212,20.124,103.773
1952324,ຫ້ວຍຫົກ,Ban Houayhok,ban-houayhok-1952324,1952324,19.884,103.966
1954159,ຫ້ວຍຫູ,Ban Houayhou,ban-houayhou-1954159,1954159,20.224,103.714
1663822,ຫ້ວຍຂຸນ,Ban Houaykhoan,ban-houaykhoan-1663822,1663822,19.847,103.934
1954217,ຫ້ວຍຫມູນ,Ban Houaymoun,ban-houaymoun-1954217,1954217,20.102,103.813
1663641,Ban Houaysadoung,Ban Houaysadoung,ban-houaysadoung-1663641,1663641,19.963,103.928
1954247,Ban Houaysadoung,Ban Houaysadoung,ban-houaysadoung-1954247,1954247,20.06,103.961
1952295,Ban Houmphan,Ban Houmphan,ban-houmphan-1952295,1952295,19.968,103.877
1954160,Ban Kadèng,Ban Kadeng,ban-kadeng-1954160,1954160,20.223,103.744
1954214,ກາງ,Ban Kang,ban-kang-1954214,1954214,20.138,103.729
1663185,Ban Kèo Gnoung,Ban Keo Gnoung,ban-keo-gnoung-1663185,1663185,20.067,103.85
1663167,Ban Kèo Tao,Ban Keo Tao,ban-keo-tao-1663167,1663167,20.025,103.887
1663173,Ban Kèo-Nguak,Ban Keo-Nguak,ban-keo-nguak-1663173,1663173,19.924,103.892
1663179,Ban Kèokoup,Ban Keokoup,ban-keokoup-1663179,1663179,19.967,104.017
1954242,Ban Kèotat,Ban Keotat,ban-keotat-1954242,1954242,20.073,103.822
1663160,Ban Keu,Ban Keu,ban-keu-1663160,1663160,20.049,104.08
1663062,Ban Khang Khao,Ban Khang Khao,ban-khang-khao-1663062,1663062,20.167,103.817
1956837,Ban Không,Ban Khong,ban-khong-1956837,1956837,20.044,103.498
1954254,Ban Komouang,Ban Komouang,ban-komouang-1954254,1954254,20.055,103.529
1952779,Ban Lôngko,Ban Longko,ban-longko-1952779,1952779,19.93,104.056
1662356,Ban Maignan,Ban Maignan,ban-maignan-1662356,1662356,20.004,103.956
1954275,Ban Maignan,Ban Maignan,ban-maignan-1954275,1954275,20.003,103.945
1662335,Ban Malat,Ban Malat,ban-malat-1662335,1662335,19.998,103.892
1662299,Ban Mêo Khang Khao,Ban Meo Khang Khao,ban-meo-khang-khao-1662299,1662299,20.167,103.8
1954250,ຫມໍ້,Ban Mo,ban-mo-1954250,1954250,20.057,103.637
1662247,ມົນ,Ban Mon,ban-mon-1662247,1662247,19.826,103.943
1952794,ເມືອງອໍ,Ban Muang-O,ban-muang-o-1952794,1952794,19.998,104.085
1655182,Ban Muanglap,Ban Muanglap,ban-muanglap-1655182,1655182,20.14,103.567
1655133,ເມືອງເປີນ,Ban Muangpeun,ban-muangpeun-1655133,1655133,20.213,103.869
1661945,ເຕົ້າຫີນ,Ban Na Hing,ban-na-hing-1661945,1661945,20.183,103.9
1952778,Ban Nahing,Ban Nahing,ban-nahing-1952778,1952778,19.954,104.091
1952790,Ban Nakéng,Ban Nakeng,ban-nakeng-1952790,1952790,19.96,104.135
1954209,Ban Nakham,Ban Nakham,ban-nakham-1954209,1954209,20.13,103.867
1952761,Ban Namén,Ban Namen,ban-namen-1952761,1952761,19.943,104.009
1956952,ນ້ຳແຫລມ,Ban Namlem,ban-namlem-1956952,1956952,20.042,104.117
1664848,ນ້ຳປ້ອງ,Ban Nampong,ban-nampong-1664848,1664848,20.225,103.859
1952776,Ban Nampong,Ban Nampong,ban-nampong-1952776,1952776,19.97,104.066
1954189,Ban Namtat,Ban Namtat,ban-namtat-1954189,1954189,20.169,103.788
1954253,Ban Naphiang,Ban Naphiang,ban-naphiang-1954253,1954253,20.049,103.58
1660985,Ban Naxai,Ban Naxai,ban-naxai-1660985,1660985,20.167,103.741
1660789,Ban Nongkhay,Ban Nongkhay,ban-nongkhay-1660789,1660789,19.967,104.017
1956951,ປ່າ,Ban Pa,ban-pa-1956951,1956951,20.052,104.109
1952769,ປາຈ້າ,Ban Pacha,ban-pacha-1952769,1952769,19.899,104.025
1954154,Ban Pacha,Ban Pacha,ban-pacha-1954154,1954154,20.23,103.933
1954218,ປ່າຈ້າ,Ban Pacha,ban-pacha-1954218,1954218,20.102,103.885
1952766,Ban Pakèk,Ban Pakek,ban-pakek-1952766,1952766,19.932,104.022
1660528,ປ່າຈ້າ,Ban Pakha,ban-pakha-1660528,1660528,20.127,103.934
1952783,Ban Pakhôm,Ban Pakhom,ban-pakhom-1952783,1952783,19.913,104.114
1952782,Ban Pakout,Ban Pakout,ban-pakout-1952782,1952782,19.923,104.105
1660379,Ban Pakpèk,Ban Pakpek,ban-pakpek-1660379,1660379,20.245,103.909
1660275,Ban Phakgna,Ban Phakgna,ban-phakgna-1660275,1660275,20.121,103.707
1954179,ຜານາງ,Ban Phanang,ban-phanang-1954179,1954179,20.182,103.819
1660196,Ban Phangouat,Ban Phangouat,ban-phangouat-1660196,1660196,19.983,103.95
1660100,Ban Phiali,Ban Phiali,ban-phiali-1660100,1660100,19.933,104.017
1954251,ພຽງດີ,Ban Phiangdi,ban-phiangdi-1954251,1954251,20.05,103.64
1660109,ພຽງຄຳ,Ban Phiangkham,ban-phiangkham-1660109,1660109,20.14,103.743
1954192,ພຽງຄຳ,Ban Phiangkham,ban-phiangkham-1954192,1954192,20.141,103.743
1660123,Ban Phônhông,Ban Phonhong,ban-phonhong-1660123,1660123,20.193,103.876
1954172,Ban Phônhông,Ban Phonhong,ban-phonhong-1954172,1954172,20.193,103.878
1659792,Ban Phou Koui,Ban Phou Koui,ban-phou-koui-1659792,1659792,20.117,103.783
1659789,ພູເລົາ,Ban Phoulao,ban-phoulao-1659789,1659789,20.08,103.736
1956836,ພູເລົາ,Ban Phoulao,ban-phoulao-1956836,1956836,20.076,103.471
1952762,Ban Phousamsao,Ban Phousamsao,ban-phousamsao-1952762,1952762,19.963,104.007
1954255,ປຸງໄຮ,Ban Pounghai,ban-pounghai-1954255,1954255,20.045,103.508
1659509,ສະເລີດ,Ban Saleut,ban-saleut-1659509,1659509,19.917,104
1659502,ສະລ້ອງ,Ban Salong,ban-salong-1659502,1659502,19.946,103.969
1954264,ສະນອດ,Ban Sanot,ban-sanot-1954264,1954264,20.019,103.933
1956949,ສະນອດ,Ban Sanot,ban-sanot-1956949,1956949,20.104,104.144
1952288,Ban Sêngkét,Ban Sengket,ban-sengket-1952288,1952288,19.995,103.947
1952785,Ban Sômphian,Ban Somphian,ban-somphian-1952785,1952785,19.927,104.139
1952780,Ban Sômpong,Ban Sompong,ban-sompong-1952780,1952780,19.917,104.081
1653074,ສົງຄາວ,Ban Song-Kao,ban-song-kao-1653074,1653074,20.088,104.1
1659070,Ban Sop Sam Houei,Ban Sop Sam Houei,ban-sop-sam-houei-1659070,1659070,19.9,104.033
1653047,Ban Sôp-Kat,Ban Sop-Kat,ban-sop-kat-1653047,1653047,20.044,103.668
1954215,Ban Sôp-Lap-Nua,Ban Sop-Lap-Nua,ban-sop-lap-nua-1954215,1954215,20.108,103.585
1954252,Ban Sôp-Lap-Tai,Ban Sop-Lap-Tai,ban-sop-lap-tai-1954252,1954252,20.048,103.641
1954249,Ban Sôp-Lèm,Ban Sop-Lem,ban-sop-lem-1954249,1954249,20.052,103.655
1954191,Ban Sôplèm,Ban Soplem,ban-soplem-1954191,1954191,20.151,103.635
1954239,ໂຮມພັນ,Ban Sopphay,ban-sopphay-1954239,1954239,20.076,103.569
1659071,Ban Sôpsamhouay,Ban Sopsamhouay,ban-sopsamhouay-1659071,1659071,19.9,104.033
1952326,Ban Sôpvan,Ban Sopvan,ban-sopvan-1952326,1952326,19.874,103.901
1658813,ຕະນຽດ,Ban Taniat,ban-taniat-1658813,1658813,20.013,103.961
1658800,ຕາດ,Ban Tat,ban-tat-1658800,1658800,19.899,103.907
1658655,ຖຳໍ້,Ban Tham,ban-tham-1658655,1658655,20.045,104.035
1658654,Ban Tham (2),Ban Tham (2),ban-tham-2-1658654,1658654,20.033,104.033
1658574,ທາດ,Ban That,ban-that-1658574,1658574,19.974,103.983
1956938,Ban Thaviang,Ban Thaviang,ban-thaviang-1956938,1956938,20.142,104.098
1954177,Ban Thènbè,Ban Thenbe,ban-thenbe-1954177,1954177,20.196,103.735
1658502,Ban Thônggnot,Ban Thonggnot,ban-thonggnot-1658502,1658502,20.222,103.797
1660178,Ban Thôngphao,Ban Thongphao,ban-thongphao-1660178,1660178,20.151,103.877
1954272,Ban Tinkông,Ban Tinkong,ban-tinkong-1954272,1954272,20.011,103.71
1952781,Ban Tinpha,Ban Tinpha,ban-tinpha-1952781,1952781,19.904,104.076
1660938,Ban Vang-Gnou,Ban Vang-Gnou,ban-vang-gnou-1660938,1660938,20.011,103.826
1954157,Ban Vangkan,Ban Vangkan,ban-vangkan-1954157,1954157,20.207,103.609
1954240,Ban Vangkan,Ban Vangkan,ban-vangkan-1954240,1954240,20.076,103.68
1954142,Ban Vangphouk,Ban Vangphouk,ban-vangphouk-1954142,1954142,20.305,103.583
1663496,ແວກ,Ban Vek,ban-vek-1663496,1663496,20.19,103.9
1954181,ແວກ,Ban Vek,ban-vek-1954181,1954181,20.189,103.899
1658161,ວຽງ,Ban Viang,ban-viang-1658161,1658161,19.898,103.944
1954256,Ban Viangthong,Ban Viangthong,ban-viangthong-1954256,1954256,20.043,103.503
1658000,Ban Xômthia,Ban Xomthia,ban-xomthia-1658000,1658000,19.933,103.867
8440796,Houarnuang,Houarnuang,houarnuang-8440796,8440796,20.142,103.622
7648310,Huameung,Huameung,huameung-7648310,7648310,20.149,103.859
1655148,ເມືອງອໍ,Muang O,muang-o-1655148,1655148,20.133,103.75
1655128,Muang Phèn,Muang Phen,muang-phen-1655128,1655128,19.967,104.083
1653891,Phông-Sathon,Phong-Sathon,phong-sathon-1653891,1653891,20.3,103.583
1652057,Xiengdi,Xiengdi,xiengdi-1652057,1652057,20.033,103.733
