id,name.local,name.en,name.slug,code.id,geo.lat,geo.lon
1664861,Ban Bouakhai,Ban Bouakhai,ban-bouakhai-1664861,1664861,16.923,104.755
1664783,Ban Bungxé,Ban Bungxe,ban-bungxe-1664783,1664783,17.075,104.877
1664611,Ban Dang,Ban Dang,ban-dang-1664611,1664611,17.096,104.949
11235190,Ban Dôngbak,Ban Dongbak,ban-dongbak-11235190,11235190,16.799,104.852
1664506,Ban Dônggnay,Ban Donggnay,ban-donggnay-1664506,1664506,17.01,104.858
11235191,Ban Dôngkatiao,Ban Dongkatiao,ban-dongkatiao-11235191,11235191,16.812,104.874
11234980,Ban Dôngkhouang,Ban Dongkhouang,ban-dongkhouang-11234980,11234980,17.059,105.097
11235167,Ban Dôngkôkphoung,Ban Dongkokphoung,ban-dongkokphoung-11235167,11235167,16.8,104.823
1664457,Ban Dôngphao,Ban Dongphao,ban-dongphao-1664457,1664457,16.981,104.857
1664453,Ban Dôngphou,Ban Dongphou,ban-dongphou-1664453,1664453,17.004,104.882
1664297,Ban Gnangkham,Ban Gnangkham,ban-gnangkham-1664297,1664297,16.96,104.881
11234310,Ban Hatkhamdi,Ban Hatkhamdi,ban-hatkhamdi-11234310,11234310,17.09,104.932
11235243,Ban Hinnam Oy,Ban Hinnam Oy,ban-hinnam-oy-11235243,11235243,16.757,104.761
1663896,Ban Houayhè,Ban Houayhe,ban-houayhe-1663896,1663896,16.985,104.83
11234971,Ban Houaytabong,Ban Houaytabong,ban-houaytabong-11234971,11234971,17.042,105.036
1663450,Ban Kachou,Ban Kachou,ban-kachou-1663450,1663450,16.97,104.958
1663304,Ban Kan,Ban Kan,ban-kan-1663304,1663304,17.035,104.955
1663380,Ban Kangpa,Ban Kangpa,ban-kangpa-1663380,1663380,17.038,104.843
11234287,Ban Kangpa-Noy,Ban Kangpa-Noy,ban-kangpa-noy-11234287,11234287,17.048,104.851
1663273,Ban Kènghèt,Ban Kenghet,ban-kenghet-1663273,1663273,16.878,104.915
1663268,Ban Kèngkabao,Ban Kengkabao,ban-kengkabao-1663268,1663268,16.811,104.747
1663257,Ban Kèngkhai,Ban Kengkhai,ban-kengkhai-1663257,1663257,16.867,104.843
1663237,Ban Kènglèng,Ban Kengleng,ban-kengleng-1663237,1663237,17.067,105.071
1663224,Ban Kèngmun,Ban Kengmun,ban-kengmun-1663224,1663224,17.073,105.044
11234331,Ban Kéngphosi,Ban Kengphosi,ban-kengphosi-11234331,11234331,17.026,104.812
11235194,Ban Khamkop,Ban Khamkop,ban-khamkop-11235194,11235194,16.84,104.879
11235203,Ban Khuakhoakai,Ban Khuakhoakai,ban-khuakhoakai-11235203,11235203,16.97,104.908
1662616,Ban Lao,Ban Lao,ban-lao-1662616,1662616,17.079,105.117
1662607,Ban Laofay,Ban Laofay,ban-laofay-1662607,1662607,16.943,104.924
11234330,Ban Manilat,Ban Manilat,ban-manilat-11234330,11234330,17.071,104.988
1662215,Ban Mouangkhai,Ban Mouangkhai,ban-mouangkhai-1662215,1662215,16.993,105.057
1660629,Ban Nadèng,Ban Nadeng,ban-nadeng-1660629,1660629,17.003,104.949
11235201,Ban Nadôkmai,Ban Nadokmai,ban-nadokmai-11235201,11235201,16.953,104.882
1661802,Ban Nakhanay,Ban Nakhanay,ban-nakhanay-1661802,1661802,16.955,104.876
1661463,Ban Namouang,Ban Namouang,ban-namouang-1661463,1661463,16.987,104.962
1661294,Ban Nao-Nua,Ban Nao-Nua,ban-nao-nua-1661294,1661294,16.983,104.889
1661293,Ban Nao-Tai,Ban Nao-Tai,ban-nao-tai-1661293,1661293,16.98,104.879
1661175,Ban Nasang,Ban Nasang,ban-nasang-1661175,1661175,16.904,104.767
1661142,Ban Nasop,Ban Nasop,ban-nasop-1661142,1661142,16.966,104.894
11235168,Ban Natheung,Ban Natheung,ban-natheung-11235168,11235168,16.747,104.793
1661021,Ban Navang,Ban Navang,ban-navang-1661021,1661021,16.973,104.824
11235200,Ban Naxéngkham,Ban Naxengkham,ban-naxengkham-11235200,11235200,16.953,104.827
11235198,Ban Nonghuathong,Ban Nonghuathong,ban-nonghuathong-11235198,11235198,16.941,104.844
1660782,Ban Nongkhiat-Luang,Ban Nongkhiat-Luang,ban-nongkhiat-luang-1660782,1660782,16.975,105.076
11235242,Ban Nongsaphan,Ban Nongsaphan,ban-nongsaphan-11235242,11235242,16.765,104.86
1660628,Ban Nônnadèng,Ban Nonnadeng,ban-nonnadeng-1660628,1660628,16.983,104.95
11235195,Ban Nonsan,Ban Nonsan,ban-nonsan-11235195,11235195,16.896,104.911
11235197,Ban Noy,Ban Noy,ban-noy-11235197,11235197,16.923,104.842
1660437,Ban Pakxé,Ban Pakxe,ban-pakxe-1660437,1660437,17.083,105.033
11235184,Ban Phakkhagna-Kang,Ban Phakkhagna-Kang,ban-phakkhagna-kang-11235184,11235184,16.735,104.84
11235185,Ban Phakkhagna-Nua,Ban Phakkhagna-Nua,ban-phakkhagna-nua-11235185,11235185,16.74,104.856
11235171,Ban Phakkhagna-Tai,Ban Phakkhagna-Tai,ban-phakkhagna-tai-11235171,11235171,16.722,104.824
11234978,Ban Phokho-Mai,Ban Phokho-Mai,ban-phokho-mai-11234978,11234978,17.061,105.149
11234977,Ban Phônkho-Nua,Ban Phonkho-Nua,ban-phonkho-nua-11234977,11234977,17.062,105.161
1659869,Ban Phônthan,Ban Phonthan,ban-phonthan-1659869,1659869,17.043,104.864
11234979,Ban Phou,Ban Phou,ban-phou-11234979,11234979,17.06,105.132
1659674,Ban Pông,Ban Pong,ban-pong-1659674,1659674,16.94,104.748
1659185,Ban Sakong,Ban Sakong,ban-sakong-1659185,1659185,16.996,104.796
1659380,Ban Savang,Ban Savang,ban-savang-1659380,1659380,16.769,104.76
1659224,Ban Sikhai,Ban Sikhai,ban-sikhai-1659224,1659224,17.027,104.931
11235163,Ban Sivilai,Ban Sivilai,ban-sivilai-11235163,11235163,16.836,104.767
1659165,Ban Sômsaat,Ban Somsaat,ban-somsaat-1659165,1659165,16.985,104.83
11235161,Ban Somsanouk,Ban Somsanouk,ban-somsanouk-11235161,11235161,16.855,104.772
11234967,Ban Tatkham-Mai,Ban Tatkham-Mai,ban-tatkham-mai-11234967,11234967,17.103,105.011
1658755,Ban Thabô,Ban Thabo,ban-thabo-1658755,1658755,17.035,104.833
1658746,Ban Thadua,Ban Thadua,ban-thadua-1658746,1658746,16.935,104.751
1658723,Ban Thakham,Ban Thakham,ban-thakham-1658723,1658723,16.9,104.787
1658714,Ban Thakho,Ban Thakho,ban-thakho-1658714,1658714,16.883,104.76
1658372,Ban Tônhèn,Ban Tonhen,ban-tonhen-1658372,1658372,17.047,104.893
1658175,Ban Veun-Nua,Ban Veun-Nua,ban-veun-nua-1658175,1658175,17.038,104.89
1658083,Ban Xaysoung,Ban Xaysoung,ban-xaysoung-1658083,1658083,17.081,104.835
1658048,Ban Xiangkhai,Ban Xiangkhai,ban-xiangkhai-1658048,1658048,17.073,105.099
