id,name.local,name.en,name.slug,code.id,geo.lat,geo.lon
1664925,Ban Bèng,Ban Beng,ban-beng-1664925,1664925,18.567,102.4
11231933,Ban Danpasat,Ban Danpasat,ban-danpasat-11231933,11231933,18.46,102.379
11232574,Ban Daomouang,Ban Daomouang,ban-daomouang-11232574,11232574,18.311,102.411
1664588,Ban Deun Sai,Ban Deun Sai,ban-deun-sai-1664588,1664588,18.433,102.45
11231889,Ban Dông,Ban Dong,ban-dong-11231889,11231889,18.354,102.409
11232577,Ban Dôngkhao,Ban Dongkhao,ban-dongkhao-11232577,11232577,18.32,102.469
1944278,Ban Ekxang,Ban Ekxang,ban-ekxang-1944278,1944278,18.356,102.463
1944319,Ban Gnouat,Ban Gnouat,ban-gnouat-1944319,1944319,18.574,102.397
11231893,Ban Hôngluay-Saka,Ban Hongluay-Saka,ban-hongluay-saka-11231893,11231893,18.374,102.425
11231887,Ban Houaydua,Ban Houaydua,ban-houaydua-11231887,11231887,18.369,102.338
11231899,Ban Houaythôn,Ban Houaython,ban-houaython-11231899,11231899,18.444,102.41
1663393,Ban Kang,Ban Kang,ban-kang-1663393,1663393,18.55,102.4
1944268,Ban Kèng-Na,Ban Keng-Na,ban-keng-na-1944268,1944268,18.325,102.432
11231931,Ban Kèng-Nang,Ban Keng-Nang,ban-keng-nang-11231931,11231931,18.631,102.433
1663138,Ban Kham,Ban Kham,ban-kham-1663138,1663138,18.571,102.398
11231801,Ban Khènsavan,Ban Khensavan,ban-khensavan-11231801,11231801,18.335,102.425
11231922,Ban Kôktén,Ban Kokten,ban-kokten-11231922,11231922,18.505,102.394
1662747,Ban Kouei,Ban Kouei,ban-kouei-1662747,1662747,18.6,102.417
11231891,Ban Lak-Hasipsong,Ban Lak-Hasipsong,ban-lak-hasipsong-11231891,11231891,18.348,102.426
1944256,Ban Mai,Ban Mai,ban-mai-1944256,1944256,18.311,102.461
1944308,Ban Na Phèng,Ban Na Pheng,ban-na-pheng-1944308,1944308,18.429,102.439
1661170,Ban Na Sang Noi,Ban Na Sang Noi,ban-na-sang-noi-1661170,1661170,18.45,102.45
1944304,Ban Nabon,Ban Nabon,ban-nabon-1944304,1944304,18.386,102.426
11231901,Ban Nagnang,Ban Nagnang,ban-nagnang-11231901,11231901,18.492,102.449
1661891,Ban Nakam,Ban Nakam,ban-nakam-1661891,1661891,18.542,102.412
1661679,Ban Nalao,Ban Nalao,ban-nalao-1661679,1661679,18.494,102.471
1944270,Ban Nalao,Ban Nalao,ban-nalao-1944270,1944270,18.34,102.433
11231910,Ban Nalongkhoun,Ban Nalongkhoun,ban-nalongkhoun-11231910,11231910,18.499,102.45
1661419,Ban Nam Poun,Ban Nam Poun,ban-nam-poun-1661419,1661419,18.5,102.433
1944311,Ban Namchèng,Ban Namcheng,ban-namcheng-1944311,1944311,18.469,102.41
11231923,Ban Namchim,Ban Namchim,ban-namchim-11231923,11231923,18.528,102.426
1661588,Ban Nameui,Ban Nameui,ban-nameui-1661588,1661588,18.546,102.395
11231921,Ban Namlin,Ban Namlin,ban-namlin-11231921,11231921,18.491,102.411
1661460,Ban Namouang,Ban Namouang,ban-namouang-1661460,1661460,18.536,102.427
1661208,Ban Naphô,Ban Napho,ban-napho-1661208,1661208,18.597,102.435
1661770,Ban Naphô,Ban Napho,ban-napho-1661770,1661770,18.426,102.458
1661207,Ban Naphô-Nua,Ban Napho-Nua,ban-napho-nua-1661207,1661207,18.511,102.421
1944365,Ban Naphôpha Lat,Ban Naphopha Lat,ban-naphopha-lat-1944365,1944365,18.596,102.42
1944318,Ban Nasouak,Ban Nasouak,ban-nasouak-1944318,1944318,18.52,102.451
1944266,Ban Nathép,Ban Nathep,ban-nathep-1944266,1944266,18.316,102.427
11232576,Ban Nathép,Ban Nathep,ban-nathep-11232576,11232576,18.315,102.446
1944302,Ban Nathong,Ban Nathong,ban-nathong-1944302,1944302,18.485,102.469
1944310,Ban Naxay,Ban Naxay,ban-naxay-1944310,1944310,18.431,102.453
1661149,Ban Naxom,Ban Naxom,ban-naxom-1661149,1661149,18.552,102.421
1944316,Ban Naxông,Ban Naxong,ban-naxong-1944316,1944316,18.503,102.425
1655163,Ban Naxou,Ban Naxou,ban-naxou-1655163,1655163,18.498,102.435
1944257,Ban Nôn,Ban Non,ban-non-1944257,1944257,18.309,102.467
1660790,Ban Nong Khay,Ban Nong Khay,ban-nong-khay-1660790,1660790,18.561,102.384
11231917,Ban Nonggne,Ban Nonggne,ban-nonggne-11231917,11231917,18.463,102.381
1944279,Ban Nongkhon,Ban Nongkhon,ban-nongkhon-1944279,1944279,18.38,102.396
11231800,Ban Nongnak,Ban Nongnak,ban-nongnak-11231800,11231800,18.35,102.422
11231886,Ban Nongpen,Ban Nongpen,ban-nongpen-11231886,11231886,18.448,102.364
1944269,Ban Nongpoung,Ban Nongpoung,ban-nongpoung-1944269,1944269,18.331,102.426
1944300,Ban Nongtao,Ban Nongtao,ban-nongtao-1944300,1944300,18.538,102.415
11231905,Ban Nônkabay,Ban Nonkabay,ban-nonkabay-11231905,11231905,18.536,102.419
1660908,Ban Noy,Ban Noy,ban-noy-1660908,1660908,18.422,102.448
1944299,Ban Phia,Ban Phia,ban-phia-1944299,1944299,18.551,102.397
1659986,Ban Phôn,Ban Phon,ban-phon-1659986,1659986,18.49,102.461
1944303,Ban Phôn Savat,Ban Phon Savat,ban-phon-savat-1944303,1944303,18.407,102.431
1944267,Ban Phon Soung,Ban Phon Soung,ban-phon-soung-1944267,1944267,18.311,102.46
11231906,Ban Phônbôk,Ban Phonbok,ban-phonbok-11231906,11231906,18.547,102.401
1944306,Ban Phôngnang,Ban Phongnang,ban-phongnang-1944306,1944306,18.406,102.426
1659950,Ban Phônhai,Ban Phonhai,ban-phonhai-1659950,1659950,18.513,102.449
1659946,Ban Phônho,Ban Phonho,ban-phonho-1659946,1659946,18.524,102.442
1659941,Ban Phônkèo,Ban Phonkeo,ban-phonkeo-1659941,1659941,18.567,102.39
1659939,Ban Phônkham,Ban Phonkham,ban-phonkham-1659939,1659939,18.508,102.432
11231892,Ban Phônkham,Ban Phonkham,ban-phonkham-11231892,11231892,18.355,102.431
11231897,Ban Phônkham,Ban Phonkham,ban-phonkham-11231897,11231897,18.426,102.427
1944277,Ban Phônlè,Ban Phonle,ban-phonle-1944277,1944277,18.367,102.426
1659911,Ban Phônngam,Ban Phonngam,ban-phonngam-1659911,1659911,18.492,102.42
11231895,Ban Phônsavan,Ban Phonsavan,ban-phonsavan-11231895,11231895,18.427,102.411
1944307,Ban Phônsavang,Ban Phonsavang,ban-phonsavang-1944307,1944307,18.423,102.425
11231909,Ban Phônsavat,Ban Phonsavat,ban-phonsavat-11231909,11231909,18.495,102.466
1944298,Ban Phônsi,Ban Phonsi,ban-phonsi-1944298,1944298,18.554,102.395
1944312,Ban Phônsi-Tai,Ban Phonsi-Tai,ban-phonsi-tai-1944312,1944312,18.484,102.412
1659883,Ban Phônsida,Ban Phonsida,ban-phonsida-1659883,1659883,18.487,102.453
1659879,Ban Phônsoung,Ban Phonsoung,ban-phonsoung-1659879,1659879,18.327,102.465
11231908,Ban Phôntha,Ban Phontha,ban-phontha-11231908,11231908,18.491,102.481
1659868,Ban Phônthan,Ban Phonthan,ban-phonthan-1659868,1659868,18.369,102.463
11231896,Ban Phônthong,Ban Phonthong,ban-phonthong-11231896,11231896,18.433,102.419
11231894,Ban Phôntong,Ban Phontong,ban-phontong-11231894,11231894,18.423,102.419
1944313,Ban Phônxai,Ban Phonxai,ban-phonxai-1944313,1944313,18.495,102.419
11232575,Ban Phônxai,Ban Phonxai,ban-phonxai-11232575,11232575,18.322,102.451
11231888,Ban Phousan,Ban Phousan,ban-phousan-11231888,11231888,18.352,102.412
11231890,Ban Phouviang,Ban Phouviang,ban-phouviang-11231890,11231890,18.357,102.412
11231885,Ban Poung,Ban Poung,ban-poung-11231885,11231885,18.483,102.377
1659547,Ban Sai Phon,Ban Sai Phon,ban-sai-phon-1659547,1659547,18.483,102.467
1659545,Ban Saka,Ban Saka,ban-saka-1659545,1659545,18.404,102.431
1659434,Ban Sang Gnai,Ban Sang Gnai,ban-sang-gnai-1659434,1659434,18.517,102.45
11231898,Ban Sangxivit-Mai,Ban Sangxivit-Mai,ban-sangxivit-mai-11231898,11231898,18.435,102.423
11231924,Ban Sènsa-At,Ban Sensa-At,ban-sensa-at-11231924,11231924,18.54,102.403
1659352,Ban Sènxoum,Ban Senxoum,ban-senxoum-1659352,1659352,18.562,102.381
11231911,Ban Sibounhang,Ban Sibounhang,ban-sibounhang-11231911,11231911,18.506,102.434
11232573,Ban Sivilai,Ban Sivilai,ban-sivilai-11232573,11232573,18.298,102.468
11231799,Ban Sômboun,Ban Somboun,ban-somboun-11231799,11231799,18.359,102.425
11232578,Ban Taothan,Ban Taothan,ban-taothan-11232578,11232578,18.329,102.444
11231877,Ban That,Ban That,ban-that-11231877,11231877,18.599,102.418
1944305,Ban Vangmôn,Ban Vangmon,ban-vangmon-1944305,1944305,18.399,102.426
11231875,Ban Vangmôn,Ban Vangmon,ban-vangmon-11231875,11231875,18.61,102.413
1655124,Muang Phôn-Hông,Muang Phon-Hong,muang-phon-hong-1655124,1655124,18.495,102.415
