id,name.local,name.en,name.slug,code.id,geo.lat,geo.lon
11237369,Ban Bo,Ban Bo,ban-bo-11237369,11237369,21.379,101.037
1664880,Ban Bouak-Hèt,Ban Bouak-Het,ban-bouak-het-1664880,1664880,21.418,101.085
11237376,ບວກຍະໄຊໃຫ່ມ,Ban Bouakgnaxai,ban-bouakgnaxai-11237376,11237376,21.391,101.155
11237393,ບວກຄຸ,Ban Bouakkhou,ban-bouakkhou-11237393,11237393,21.474,101.13
1664773,Ban Cha Kanta,Ban Cha Kanta,ban-cha-kanta-1664773,1664773,21.367,101.05
11237439,ຈາອິນຕະ,Ban Cha-Inta,ban-cha-inta-11237439,11237439,21.324,100.93
11237366,ປາງທອງ,Ban Cha-Oup,ban-cha-oup-11237366,11237366,21.41,101.036
11237438,ປາງທອງ,Ban Cha-Oup,ban-cha-oup-11237438,11237438,21.296,100.9
11237440,Ban Chakheum,Ban Chakheum,ban-chakheum-11237440,11237440,21.286,100.93
11237390,Ban Chaphoulin,Ban Chaphoulin,ban-chaphoulin-11237390,11237390,21.43,101.067
1664735,ຈາເຂີນ,Ban Chaphouma,ban-chaphouma-1664735,1664735,21.212,100.974
11237398,Ban Chaphouma-Mai,Ban Chaphouma-Mai,ban-chaphouma-mai-11237398,11237398,21.211,100.952
11237436,ຈາພູທອນ,Ban Chaphouthon,ban-chaphouthon-11237436,11237436,21.312,100.877
11237434,ຈ່າຕະ,Ban Chata,ban-chata-11237434,11237434,21.283,100.879
11237367,Ban Chavang-Kao,Ban Chavang-Kao,ban-chavang-kao-11237367,11237367,21.398,101.074
1955653,Ban Chiangmoun,Ban Chiangmoun,ban-chiangmoun-1955653,1955653,21.202,101.152
1955640,ຈອມ,Ban Chom,ban-chom-1955640,1955640,21.237,101.153
1955665,Ban Douthan,Ban Douthan,ban-douthan-1955665,1955665,21.176,101.251
11237386,Ban Eula,Ban Eula,ban-eula-11237386,11237386,21.365,100.967
1955723,ຫົວນາກາງ,Ban Houana-Nua,ban-houana-nua-1955723,1955723,21.107,101.122
1955730,ຫົວນາກາງ,Ban Houana-Tai,ban-houana-tai-1955730,1955730,21.092,101.103
1955722,Ban Houanamkèo,Ban Houanamkeo,ban-houanamkeo-1955722,1955722,21.116,101.165
11237368,Ban Houay-Ung,Ban Houay-Ung,ban-houay-ung-11237368,11237368,21.373,101.063
11237374,ຫ້ວຍເຮືອງ,Ban Houayhuang,ban-houayhuang-11237374,11237374,21.379,101.127
1955648,ຫ້ວຍແຂມ,Ban Houaykaem,ban-houaykaem-1955648,1955648,21.199,101.065
1955680,ຫ້ວຍກົດ,Ban Houaykot,ban-houaykot-1955680,1955680,21.157,101.098
1955646,ຫ້ວຍລະ,Ban Houayla-Kao,ban-houayla-kao-1955646,1955646,21.228,101.106
1955647,ຫ້ວຍແຂມ,Ban Houayla-Mai,ban-houayla-mai-1955647,1955647,21.211,101.072
1663769,ຫ້ວຍລ້ອງ,Ban Houaylong,ban-houaylong-1663769,1663769,21.244,101.182
1955641,ຫ້ວຍລ້ອງ,Ban Houaylong,ban-houaylong-1955641,1955641,21.244,101.182
1955637,ຫ້ວຍລອງເກ່ົາ,Ban Houaylong-Kao,ban-houaylong-kao-1955637,1955637,21.274,101.172
1955638,ຫ້ວຍລອງໃຫ່ມ,Ban Houaylong-Mai,ban-houaylong-mai-1955638,1955638,21.26,101.225
11237392,ຫ້ວຍຕາດ,Ban Houaytat,ban-houaytat-11237392,11237392,21.431,101.147
1955630,Ban Imlakhili,Ban Imlakhili,ban-imlakhili-1955630,1955630,21.301,101.098
1955685,Ban Kèo-Noy,Ban Keo-Noy,ban-keo-noy-1955685,1955685,21.162,101.162
1955671,ກົກມ່ວງ,Ban Keolouang,ban-keolouang-1955671,1955671,21.183,101.148
11237391,Ban Khankham,Ban Khankham,ban-khankham-11237391,11237391,21.445,101.118
1955705,ຂວາງ,Ban Khouang,ban-khouang-1955705,1955705,21.152,101.112
1955645,Ban Koloung,Ban Koloung,ban-koloung-1955645,1955645,21.222,101.147
11237435,Ban Kophé,Ban Kophe,ban-kophe-11237435,11237435,21.297,100.884
1955703,ກູ່ມ,Ban Koum,ban-koum-1955703,1955703,21.146,101.173
1662688,Ban Lacha,Ban Lacha,ban-lacha-1662688,1662688,21.167,101.267
1662689,Ban Lacha,Ban Lacha,ban-lacha-1662689,1662689,21.117,101.167
1662621,Ban Lan Tene,Ban Lan Tene,ban-lan-tene-1662621,1662621,21.15,101.117
11237375,ເລົ່າເມີຍ,Ban Laomeuy,ban-laomeuy-11237375,11237375,21.376,101.087
11237371,Ban Lèngfa,Ban Lengfa,ban-lengfa-11237371,11237371,21.352,101.019
11237450,ໂລກູ,Ban Loka,ban-loka-11237450,11237450,21.318,100.992
1955666,Ban Lonthèn,Ban Lonthen,ban-lonthen-1955666,1955666,21.19,101.211
11237384,Ban Makkouay,Ban Makkouay,ban-makkouay-11237384,11237384,21.336,100.951
1662300,ແມວ,Ban Meo,ban-meo-1662300,1662300,21.229,100.914
1955667,Ban Mouanghoun,Ban Mouanghoun,ban-mouanghoun-1955667,1955667,21.184,101.203
1662129,Ban Na,Ban Na,ban-na-1662129,1662129,21.2,101.133
1955668,Ban Nakbon,Ban Nakbon,ban-nakbon-1955668,1955668,21.184,101.18
1955682,ນໍ້າດ້າຍ,Ban Namday,ban-namday-1955682,1955682,21.159,101.112
1955689,Ban Namdékloung,Ban Namdekloung,ban-namdekloung-1955689,1955689,21.164,101.254
1955706,ນໍ້າຫູ,Ban Namhou,ban-namhou-1955706,1955706,21.133,101.039
1955654,ຫນອງຄໍາ,Ban Nongkham,ban-nongkham-1955654,1955654,21.197,101.161
1955708,Ban Nongngeun,Ban Nongngeun,ban-nongngeun-1955708,1955708,21.126,101.096
1955724,Ban Nongngeun-Noy,Ban Nongngeun-Noy,ban-nongngeun-noy-1955724,1955724,21.12,101.083
1660585,Ban Oua,Ban Oua,ban-oua-1660585,1660585,21.317,101.133
1660583,Ban Ouan,Ban Ouan,ban-ouan-1660583,1660583,21.15,101.167
11237377,ປ່າພຸກ,Ban Paphouk-Kao,ban-paphouk-kao-11237377,11237377,21.407,101.141
11237378,ປ່າພຸກ,Ban Paphouk-Mai,ban-paphouk-mai-11237378,11237378,21.416,101.136
1955687,ປ່າຕ່ອຍ,Ban Patouay,ban-patouay-1955687,1955687,21.161,101.177
1955677,ປ່າຫວາຍ,Ban Pavay-Kao,ban-pavay-kao-1955677,1955677,21.185,101.027
1955678,Ban Pavay-Mai,Ban Pavay-Mai,ban-pavay-mai-1955678,1955678,21.164,101.013
1955642,ຜາລາດ,Ban Phalat,ban-phalat-1955642,1955642,21.241,101.21
11237372,ຜາລາດ,Ban Phalat,ban-phalat-11237372,11237372,21.344,101.128
1955644,ພະບາດນ້ອຍ,Ban Phalat-Noy,ban-phalat-noy-1955644,1955644,21.222,101.206
11237373,ພະບາດນອ້ຍ,Ban Phalat-Noy,ban-phalat-noy-11237373,11237373,21.368,101.125
11237441,ຜະແດງ,Ban Phaxang,ban-phaxang-11237441,11237441,21.266,100.913
1659710,Ban Pia Nam Khine,Ban Pia Nam Khine,ban-pia-nam-khine-1659710,1659710,21.333,100.95
1659457,ສັນ,Ban San,ban-san-1659457,1659457,21.433,101.067
1659428,Ban Sang Mie,Ban Sang Mie,ban-sang-mie-1659428,1659428,21.133,101.05
1658091,Ban Say,Ban Say,ban-say-1658091,1658091,21.387,101.005
1955628,ແສນແອນ,Ban Sen-En,ban-sen-en-1955628,1955628,21.319,101.124
1659357,Ban Sene Kanta,Ban Sene Kanta,ban-sene-kanta-1659357,1659357,21.283,100.883
1659353,Ban Sene Phan Muong,Ban Sene Phan Muong,ban-sene-phan-muong-1659353,1659353,21.317,101
1955675,ສີລິເຮືອງ,Ban Silihuang,ban-silihuang-1955675,1955675,21.178,101.131
1955669,ສີລິມູນ,Ban Silimoun,ban-silimoun-1955669,1955669,21.176,101.18
1955720,Ban Sing,Ban Sing,ban-sing-1955720,1955720,21.11,101.224
1955636,ສົບອິເກ່ົາ,Ban Sop-I,ban-sop-i-1955636,1955636,21.268,101.108
1955701,ສົບອິໃຫ່ມ,Ban Sop-I,ban-sop-i-1955701,1955701,21.154,101.199
1955639,ສົບອິເກ່ົາ,Ban Sop-I-Kao,ban-sop-i-kao-1955639,1955639,21.245,101.105
1955631,ເສື້ອແດງ,Ban Suadeng,ban-suadeng-1955631,1955631,21.299,101.026
1955627,Ban Suakhao-Nua,Ban Suakhao-Nua,ban-suakhao-nua-1955627,1955627,21.303,101.188
1955634,Ban Suakhao-Tai,Ban Suakhao-Tai,ban-suakhao-tai-1955634,1955634,21.293,101.21
1659012,ຕ້າ,Ban Ta,ban-ta-1659012,1659012,21.455,101.156
1955728,Ban Tami-Kao,Ban Tami-Kao,ban-tami-kao-1955728,1955728,21.101,101.053
1955649,ຕ່າປ້າວ,Ban Tapao,ban-tapao-1955649,1955649,21.204,101.133
1658341,ທົ່ງໃຫ່ມ,Ban Thong-Mai,ban-thong-mai-1658341,1658341,21.166,101.116
1658441,Ban Tia Kamla,Ban Tia Kamla,ban-tia-kamla-1658441,1658441,21.283,100.933
1955702,ຕີນທາດ,Ban Tinthat,ban-tinthat-1955702,1955702,21.157,101.167
1955704,ຕີນທາດ,Ban Tinthat-Noy,ban-tinthat-noy-1955704,1955704,21.147,101.143
1955651,Ban Tonpouay,Ban Tonpouay,ban-tonpouay-1955651,1955651,21.201,101.143
11237385,Ban Vansakankiao,Ban Vansakankiao,ban-vansakankiao-11237385,11237385,21.368,100.976
11237383,Ban Vansenankiao,Ban Vansenankiao,ban-vansenankiao-11237383,11237383,21.344,100.926
1955670,ຊາມ,Ban Xam,ban-xam-1955670,1955670,21.19,101.16
1658047,ຊຽງແຂງ,Ban Xiangkheng,ban-xiangkheng-1658047,1658047,21.329,100.878
1955684,Ban Yangpèng,Ban Yangpeng,ban-yangpeng-1955684,1955684,21.168,101.132
11237395,Ban Youan,Ban Youan,ban-youan-11237395,11237395,21.368,101.212
11237396,Ban Youan-Nua,Ban Youan-Nua,ban-youan-nua-11237396,11237396,21.387,101.219
11237394,Ban Youan-Tai,Ban Youan-Tai,ban-youan-tai-11237394,11237394,21.363,101.194
1955626,ມອມ,Mom,mom-1955626,1955626,21.326,101.167
1655107,Muang Sing,Muang Sing,muang-sing-1655107,1655107,21.192,101.148
1655051,Muong Moune,Muong Moune,muong-moune-1655051,1655051,21.3,101.1
