id,name.local,name.en,name.slug,code.id,geo.lat,geo.lon
1664777,ຈ່າຫໍ່,Ban Chaho,ban-chaho-1664777,1664777,19.283,103.133
1664329,Ban Fay,Ban Fay,ban-fay-1664329,1664329,19.3,103.167
1659041,ໄຮ,Ban Hai,ban-hai-1659041,1659041,19.269,103.128
1664208,Ban Hangkhang,Ban Hangkhang,ban-hangkhang-1664208,1664208,19.217,102.95
11228050,ຫາດ,Ban Hat,ban-hat-11228050,11228050,19.322,103.167
1664061,ຫໍກາງ,Ban Hintang,ban-hintang-1664061,1664061,19.3,103.15
11228049,Ban Hokang,Ban Hokang,ban-hokang-11228049,11228049,19.319,103.182
1664041,Ban Hon,Ban Hon,ban-hon-1664041,1664041,19.217,103.217
1953244,ຫ້ອຍຈິດ,Ban Houaychit,ban-houaychit-1953244,1953244,19.403,102.97
1663742,Ban Houaymoua,Ban Houaymoua,ban-houaymoua-1663742,1663742,19.267,102.85
1953246,Ban Houaynampèng,Ban Houaynampeng,ban-houaynampeng-1953246,1953246,19.382,102.979
1663542,Ban Houaytoy,Ban Houaytoy,ban-houaytoy-1663542,1663542,19.25,102.883
11228388,ຫໍໄຊ,Ban Hoxai,ban-hoxai-11228388,11228388,19.286,103.132
1663180,Ban Kèokoang,Ban Keokoang,ban-keokoang-1663180,1663180,19.233,103.1
1663153,ຄາ,Ban Kha,ban-kha-1663153,1663153,19.283,103.15
1663137,Ban Kham,Ban Kham,ban-kham-1663137,1663137,19.283,103.067
1663063,ຄັງໄຂ,Ban Khangkhai,ban-khangkhai-1663063,1663063,19.183,103.133
1662936,ໂພນ,Ban Khon,ban-khon-1662936,1662936,19.25,103.117
11228047,ລາດຄ້າຍ,Ban Latkhay,ban-latkhay-11228047,11228047,19.297,103.136
1952278,ລາດແສນ,Ban Latsen,ban-latsen-1952278,1952278,19.337,103.142
1662317,ມາຍ,Ban May,ban-may-1662317,1662317,19.241,103.27
1662121,ນາຫວ້ານ,Ban Naban,ban-naban-1662121,1662121,19.267,103.117
1662117,ນາຫວ້ານ,Ban Nabin,ban-nabin-1662117,1662117,19.283,103.133
1662114,ນາສົມ,Ban Nabo,ban-nabo-1662114,1662114,19.3,103.1
1661022,ນາດ່ານ,Ban Nadan,ban-nadan-1661022,1661022,19.295,103.125
1662056,ນາແດງ,Ban Nadeng,ban-nadeng-1662056,1662056,19.333,103.2
1662048,Ban Nadit,Ban Nadit,ban-nadit-1662048,1662048,19.3,103.15
1661965,ນາຫາດ,Ban Nahat,ban-nahat-1661965,1661965,19.4,102.983
1661967,ນາຫາດ,Ban Nahat,ban-nahat-1661967,1661967,19.283,103.133
11228364,ນາແຮ່,Ban Nahe,ban-nahe-11228364,11228364,19.219,103.185
1661917,ນາຮຸງ,Ban Nahoung,ban-nahoung-1661917,1661917,19.3,103.117
1661769,Ban Nakhô,Ban Nakho,ban-nakho-1661769,1661769,19.327,103.15
1661745,Ban Nakhoun,Ban Nakhoun,ban-nakhoun-1661745,1661745,19.27,103.196
1661732,ນາຮຸງ,Ban Nakoang,ban-nakoang-1661732,1661732,19.283,103.083
1661691,ນາຫວ້ານ,Ban Nalam,ban-nalam-1661691,1661691,19.317,103.1
1661654,Ban Nalong,Ban Nalong,ban-nalong-1661654,1661654,19.283,103.083
1661642,Ban Nalouang,Ban Nalouang,ban-nalouang-1661642,1661642,19.35,103.083
1661610,ນາມັ້ນ,Ban Naman,ban-naman-1661610,1661610,19.283,103.117
1661611,ນາມັ້ນ,Ban Naman,ban-naman-1661611,1661611,19.283,103.133
1661525,Ban Namliang,Ban Namliang,ban-namliang-1661525,1661525,19.283,103.2
1952277,ນາໂລ້,Ban Namon,ban-namon-1952277,1952277,19.341,103.161
1661389,ນ້ຳຕົມ,Ban Namtom,ban-namtom-1661389,1661389,19.3,103.117
1661386,ນຳກະ,Ban Namu,ban-namu-1661386,1661386,19.283,103.1
1661351,Ban Nangam,Ban Nangam,ban-nangam-1661351,1661351,19.3,103.167
1952279,Ban Nangam,Ban Nangam,ban-nangam-1952279,1952279,19.341,103.116
1661260,ນາເພຍ,Ban Naphia,ban-naphia-1661260,1661260,19.281,103.098
1661230,ນາໂພນ,Ban Naphon,ban-naphon-1661230,1661230,19.267,103.133
1661193,ນາຫວ້ານ,Ban Nasa,ban-nasa-1661193,1661193,19.283,103.1
1661165,ນາສາບ,Ban Nasap,ban-nasap-1661165,1661165,19.233,103.283
1661151,ນາສົມ,Ban Nasom,ban-nasom-1661151,1661151,19.347,103.098
1661103,ນາຕຽງ,Ban Natham,ban-natham-1661103,1661103,19.217,103.167
1661086,ນາແຖງ,Ban Natheng,ban-natheng-1661086,1661086,19.278,103.106
1661085,ນາເທີ້,Ban Natheu,ban-natheu-1661085,1661085,19.267,103.117
11228370,ນາຕຽງ,Ban Natiang-Soung,ban-natiang-soung-11228370,11228370,19.242,103.221
1660930,ງົ້ວ,Ban Ngoua-Nua,ban-ngoua-nua-1660930,1660930,19.35,103.162
1952276,ງົ້ວ,Ban Ngoua-Tai,ban-ngoua-tai-1952276,1952276,19.344,103.176
11228367,Ban Nong-On,Ban Nong-On,ban-nong-on-11228367,11228367,19.165,103.287
1660670,Ban Nongtai,Ban Nongtai,ban-nongtai-1660670,1660670,19.317,103.183
1953245,Ban Pamailouang,Ban Pamailouang,ban-pamailouang-1953245,1953245,19.383,102.95
11228368,ຜາເຫນືອ,Ban Pha-Nua,ban-pha-nua-11228368,11228368,19.178,103.251
1660320,ຜາໃຕ້,Ban Pha-Tai,ban-pha-tai-1660320,1660320,19.171,103.258
1660310,Ban Phadèng,Ban Phadeng,ban-phadeng-1660310,1660310,19.357,102.981
1953247,Ban Phakhao,Ban Phakhao,ban-phakhao-1953247,1953247,19.364,102.964
11228365,Ban Phiangdi,Ban Phiangdi,ban-phiangdi-11228365,11228365,19.214,103.197
11228045,Ban Phiangeun,Ban Phiangeun,ban-phiangeun-11228045,11228045,19.299,103.08
1659984,ໂພນ,Ban Phon,ban-phon-1659984,1659984,19.266,103.112
1659482,Ban Samkèo,Ban Samkeo,ban-samkeo-1659482,1659482,19.167,103.217
1953243,Ban Saotang,Ban Saotang,ban-saotang-1953243,1953243,19.402,102.949
11228052,Ban Sèn-Oudôm-Nua,Ban Sen-Oudom-Nua,ban-sen-oudom-nua-11228052,11228052,19.226,103.164
11228363,Ban Sen-Oudôm-Tai,Ban Sen-Oudom-Tai,ban-sen-oudom-tai-11228363,11228363,19.221,103.175
1659043,Ban Souan-Gna,Ban Souan-Gna,ban-souan-gna-1659043,1659043,19.267,103.117
1658719,ທ່າແຂກ,Ban Thakhek,ban-thakhek-1658719,1658719,19.3,103.117
1658644,ທາງ,Ban Thang,ban-thang-1658644,1658644,19.306,103.111
11228366,ທູ່ມ,Ban Thoum,ban-thoum-11228366,11228366,19.209,103.216
1658034,ຊຽງເຫນືອ,Ban Xiang-Nua,ban-xiang-nua-1658034,1658034,19.297,103.092
11228048,ຊຽງດີ,Ban Xiangdi,ban-xiangdi-11228048,11228048,19.297,103.146
1657980,ຊົວ,Ban Xoua,ban-xoua-1657980,1657980,19.298,103.115
1657202,Hoc Tang,Hoc Tang,hoc-tang-1657202,1657202,19.217,102.933
1655137,Muang Pang,Muang Pang,muang-pang-1655137,1655137,19.333,103
1655119,Muang Pôt,Muang Pot,muang-pot-1655119,1655119,19.3,103.033
11214304,Nikhôm Latsèn,Nikhom Latsen,nikhom-latsen-11214304,11214304,19.351,103.137
1654425,Pakagnoung,Pakagnoung,pakagnoung-1654425,1654425,19.217,102.9
1652413,Tôm Plak,Tom Plak,tom-plak-1652413,1652413,19.283,103.217
