id,name.local,name.en,name.slug,code.id,geo.lat,geo.lon
1665015,Ban Ahông,Ban Ahong,ban-ahong-1665015,1665015,16.784,104.99
11235225,Ban Ahông-Noy,Ban Ahong-Noy,ban-ahong-noy-11235225,11235225,16.729,104.994
1664468,Ban Dông-Gnai,Ban Dong-Gnai,ban-dong-gnai-1664468,1664468,16.87,105.073
1664462,Ban Dông-Noy,Ban Dong-Noy,ban-dong-noy-1664462,1664462,16.608,105.099
1664499,Ban Dôngkang,Ban Dongkang,ban-dongkang-1664499,1664499,16.717,105.133
1664491,Ban Dôngkhoang,Ban Dongkhoang,ban-dongkhoang-1664491,1664491,16.862,105.087
11235192,Ban Dongmakngéo,Ban Dongmakngeo,ban-dongmakngeo-11235192,11235192,16.82,104.907
1664440,Ban Dôngtha,Ban Dongtha,ban-dongtha-1664440,1664440,16.864,105.068
11235214,Ban Dua-Noy,Ban Dua-Noy,ban-dua-noy-11235214,11235214,16.805,104.983
11226020,Ban E,Ban E,ban-e-11226020,11226020,16.797,105.021
1664011,Ban Houakham,Ban Houakham,ban-houakham-1664011,1664011,16.616,105.094
11226048,Ban Houamuang,Ban Houamuang,ban-houamuang-11226048,11226048,16.693,105.031
1663747,Ban Houaymao,Ban Houaymao,ban-houaymao-1663747,1663747,16.639,105.068
11235882,Ban Houayphaknam,Ban Houayphaknam,ban-houayphaknam-11235882,11235882,16.658,104.978
11235226,Ban Kang-Phôsi,Ban Kang-Phosi,ban-kang-phosi-11235226,11235226,16.723,104.925
11235233,Ban Kaphôsi,Ban Kaphosi,ban-kaphosi-11235233,11235233,16.708,104.942
11225970,Ban Khènnani,Ban Khennani,ban-khennani-11225970,11225970,16.705,105.085
13433949,Ban Khôk,Ban Khok,ban-khok-13433949,13433949,16.673,104.927
1662977,Ban Khôk-Gnai,Ban Khok-Gnai,ban-khok-gnai-1662977,1662977,16.606,104.986
1662952,Ban Khôkpavay-Nua,Ban Khokpavay-Nua,ban-khokpavay-nua-1662952,1662952,16.6,104.993
1662865,Ban Kipma,Ban Kipma,ban-kipma-1662865,1662865,16.665,105.112
1662798,Ban Kôktan-Kao,Ban Koktan-Kao,ban-koktan-kao-1662798,1662798,16.675,105.172
1662797,Ban Kôktè,Ban Kokte,ban-kokte-1662797,1662797,16.783,104.983
1662724,Ban Koutkaxô,Ban Koutkaxo,ban-koutkaxo-1662724,1662724,16.703,105.143
1656039,Ban Koutkhè,Ban Koutkhe,ban-koutkhe-1656039,1656039,16.639,105.087
1662603,Ban Lao-Gnai,Ban Lao-Gnai,ban-lao-gnai-1662603,1662603,16.714,105.106
1662364,Ban Mai,Ban Mai,ban-mai-1662364,1662364,16.716,105.141
1662292,Ban Mèt,Ban Met,ban-met-1662292,1662292,16.743,105.101
1662144,Ban Na,Ban Na,ban-na-1662144,1662144,16.698,105.147
11221556,Ban Nachan,Ban Nachan,ban-nachan-11221556,11221556,16.593,105.024
11226011,Ban Nadua,Ban Nadua,ban-nadua-11226011,11226011,16.684,105.148
1661925,Ban Nahouakhoua,Ban Nahouakhoua,ban-nahouakhoua-1661925,1661925,16.756,104.987
1661859,Ban Nakaxo,Ban Nakaxo,ban-nakaxo-1661859,1661859,16.626,105.113
1661845,Ban Nakéng,Ban Nakeng,ban-nakeng-1661845,1661845,16.813,105.046
1661826,Ban Nakham,Ban Nakham,ban-nakham-1661826,1661826,16.88,105.101
11221551,Ban Nakhanô,Ban Nakhano,ban-nakhano-11221551,11221551,16.61,105.039
11226009,Ban Nakhilek,Ban Nakhilek,ban-nakhilek-11226009,11226009,16.693,105.14
1661753,Ban Nakhou,Ban Nakhou,ban-nakhou-1661753,1661753,16.824,104.962
1661765,Ban Nakoy-Khôk,Ban Nakoy-Khok,ban-nakoy-khok-1661765,1661765,16.697,105.163
11225967,Ban Naphan-Khôk,Ban Naphan-Khok,ban-naphan-khok-11225967,11225967,16.863,105.061
11221549,Ban Naphô,Ban Napho,ban-napho-11221549,11221549,16.628,105.019
1661216,Ban Naphô Tai,Ban Napho Tai,ban-napho-tai-1661216,1661216,16.846,105.035
1661235,Ban Naphôkhèn,Ban Naphokhen,ban-naphokhen-1661235,1661235,16.829,105.055
1659870,Ban Naphônthan,Ban Naphonthan,ban-naphonthan-1659870,1659870,16.816,104.992
1661168,Ban Nasanôt,Ban Nasanot,ban-nasanot-1661168,1661168,16.817,104.936
11235883,Ban Nathat,Ban Nathat,ban-nathat-11235883,11235883,16.658,104.933
11235188,Ban Naxay,Ban Naxay,ban-naxay-11235188,11235188,16.75,104.902
11235189,Ban Naxay-Noy,Ban Naxay-Noy,ban-naxay-noy-11235189,11235189,16.763,104.904
11221552,Ban Nôn-Gnang,Ban Non-Gnang,ban-non-gnang-11221552,11221552,16.61,105.025
1660889,Ban Nong-Ahong,Ban Nong-Ahong,ban-nong-ahong-1660889,1660889,16.681,105.133
11226046,Ban Nong-Din,Ban Nong-Din,ban-nong-din-11226046,11226046,16.687,105.092
11226026,Ban Nongkhamhèt,Ban Nongkhamhet,ban-nongkhamhet-11226026,11226026,16.709,105.028
1660721,Ban Nongpèn,Ban Nongpen,ban-nongpen-1660721,1660721,16.876,105.086
1660640,Ban Nônhang,Ban Nonhang,ban-nonhang-1660640,1660640,16.66,105.104
1660631,Ban Nônkoung,Ban Nonkoung,ban-nonkoung-1660631,1660631,16.622,105.07
11226010,Ban Palai,Ban Palai,ban-palai-11226010,11226010,16.68,105.154
1660399,Ban Panam,Ban Panam,ban-panam-1660399,1660399,16.836,105.066
11225965,Ban Panamnai,Ban Panamnai,ban-panamnai-11225965,11225965,16.809,105.066
11235221,Ban Phakkhagna,Ban Phakkhagna,ban-phakkhagna-11235221,11235221,16.777,104.938
11221547,Ban Phin-Kang,Ban Phin-Kang,ban-phin-kang-11221547,11221547,16.644,105.012
11221546,Ban Phin-Nua,Ban Phin-Nua,ban-phin-nua-11221546,11221546,16.646,105.016
11221548,Ban Phin-Tai,Ban Phin-Tai,ban-phin-tai-11221548,11221548,16.633,105.021
11259463,Ban Phôn,Ban Phon,ban-phon-11259463,11259463,16.722,105.085
11259467,Ban Phôn,Ban Phon,ban-phon-11259467,11259467,16.722,105.084
1659968,Ban Phôndua,Ban Phondua,ban-phondua-1659968,1659968,16.8,104.996
1659925,Ban Phônmakgna,Ban Phonmakgna,ban-phonmakgna-1659925,1659925,16.667,105.117
11225966,Ban Phônmakgna,Ban Phonmakgna,ban-phonmakgna-11225966,11225966,16.838,105.07
1659917,Ban Phônnakhoun,Ban Phonnakhoun,ban-phonnakhoun-1659917,1659917,16.709,105.105
1659910,Ban Phônngiou,Ban Phonngiou,ban-phonngiou-1659910,1659910,16.651,105.121
1659908,Ban Phônngoy,Ban Phonngoy,ban-phonngoy-1659908,1659908,16.667,105.167
1659888,Ban Phônsavang,Ban Phonsavang,ban-phonsavang-1659888,1659888,16.812,105.019
1659866,Ban Phônthat,Ban Phonthat,ban-phonthat-1659866,1659866,16.727,105.13
1659854,Ban Phônyanang,Ban Phonyanang,ban-phonyanang-1659854,1659854,16.761,105.02
1659534,Ban Sakout,Ban Sakout,ban-sakout-1659534,1659534,16.719,105.14
11235217,Ban Samsaat,Ban Samsaat,ban-samsaat-11235217,11235217,16.798,104.951
11226027,Ban Sanamxai,Ban Sanamxai,ban-sanamxai-11226027,11226027,16.684,105.03
11221544,Ban Sibounhuang,Ban Sibounhuang,ban-sibounhuang-11221544,11221544,16.664,105.005
11235227,Ban Sômsanouk,Ban Somsanouk,ban-somsanouk-11235227,11235227,16.733,104.919
1658510,Ban Thông,Ban Thong,ban-thong-1658510,1658510,16.695,105.139
11226049,Ban Thôngsimuang,Ban Thongsimuang,ban-thongsimuang-11226049,11226049,16.697,105.007
11221553,Ban Thoun,Ban Thoun,ban-thoun-11221553,11221553,16.598,105.032
1658284,Ban Vangkhèn,Ban Vangkhen,ban-vangkhen-1658284,1658284,16.733,105.133
11235239,Ban Xaignamoungkhoum,Ban Xaignamoungkhoum,ban-xaignamoungkhoum-11235239,11235239,16.677,104.961
1658073,Ban Xénô,Ban Xeno,ban-xeno-1658073,1658073,16.676,104.988
11226028,Ban Xénô-Noy,Ban Xeno-Noy,ban-xeno-noy-11226028,11226028,16.683,105.043
