id,name.local,name.en,name.slug,code.id,geo.lat,geo.lon
1956921,ນົກ,Ban Bok,ban-bok-1956921,1956921,20.15,104.428
1664815,ບວກ,Ban Bouak,ban-bouak-1664815,1664815,19.956,104.36
1952834,Ban Bouak (2),Ban Bouak (2),ban-bouak-2-1952834,1952834,19.956,104.358
1956928,Ban Bun,Ban Bun,ban-bun-1956928,1956928,20.032,104.42
1664658,Ban Co Sum,Ban Co Sum,ban-co-sum-1664658,1664658,20.033,104.733
1664664,ກໍ່ລູ້,Ban Coleu,ban-coleu-1664664,1664664,20.033,104.7
1956931,Ban Dan,Ban Dan,ban-dan-1956931,1956931,20.038,104.486
11401876,Ban Dan,Ban Dan,ban-dan-11401876,11401876,20.137,104.812
1654581,ດອກໄມ້ ,Ban Dokmai,ban-dokmai-1654581,1654581,20.145,104.784
1664559,ດອນ,Ban Don,ban-don-1664559,1664559,19.781,104.723
1952795,Ban Gnia,Ban Gnia,ban-gnia-1952795,1952795,19.917,104.26
1952843,ຍອດອີ້ນ,Ban Gnot-In,ban-gnot-in-1952843,1952843,19.954,104.477
1664218,ຫ່າງ,Ban Hang,ban-hang-1664218,1664218,20.083,104.883
1956917,Ban Hintang,Ban Hintang,ban-hintang-1956917,1956917,20.175,104.431
1956925,ຫົວນາ,Ban Houana,ban-houana-1956925,1956925,20.005,104.347
1663966,ຫົວຊຽງ,Ban Houaxiang,ban-houaxiang-1663966,1663966,19.992,104.254
1663795,ຫ້ວຍກິກ,Ban Houay Kut,ban-houay-kut-1663795,1663795,20,104.6
1952787,ຫ້ວຍໂອ,Ban Houay-O,ban-houay-o-1952787,1952787,19.942,104.199
1952836,ຫ້ວຍຈີນ,Ban Houaychun,ban-houaychun-1952836,1952836,19.954,104.359
1663902,Ban Houayhap,Ban Houayhap,ban-houayhap-1663902,1663902,20,104.167
1663895,Ban Houayhé,Ban Houayhe,ban-houayhe-1663895,1663895,19.933,104.267
1663865,Ban Houayhouan,Ban Houayhouan,ban-houayhouan-1663865,1663865,19.901,104.617
1954109,ຫ້ວຍກິກ,Ban Houaykik,ban-houaykik-1954109,1954109,19.962,104.606
1663802,ຫ້ວຍກູດ,Ban Houaykout,ban-houaykout-1663802,1663802,19.967,104.617
1954110,ຫ້ວຍລາດ,Ban Houaylat,ban-houaylat-1954110,1954110,19.922,104.578
1663777,Ban Houaylin,Ban Houaylin,ban-houaylin-1663777,1663777,19.95,104.817
1663746,ຫ້ວຍມາຍ,Ban Houaymay,ban-houaymay-1663746,1663746,20.001,104.49
1663646,ຫ້ວຍປຸງ,Ban Houaypoung,ban-houaypoung-1663646,1663646,19.961,104.292
1956927,ຫວ້ຍສະລາ,Ban Houaysala,ban-houaysala-1956927,1956927,20.063,104.374
1956926,ຫວ້ຍສະລາ,Ban Houaysala-Kao,ban-houaysala-kao-1956926,1956926,20.044,104.375
1663607,Ban Houaysap,Ban Houaysap,ban-houaysap-1663607,1663607,19.9,104.683
1663579,Ban Houaytamak,Ban Houaytamak,ban-houaytamak-1663579,1663579,19.933,104.217
1956922,Ban Houaytongching,Ban Houaytongching,ban-houaytongching-1956922,1956922,20.09,104.309
1956957,Ban Kang,Ban Kang,ban-kang-1956957,1956957,20.029,104.22
11401879,ກາງ,Ban Kang,ban-kang-11401879,11401879,20.084,104.935
1663190,ແກ່ວດິ່ງ,Ban Keoding,ban-keoding-1663190,1663190,20.041,104.138
1956953,ແກ່ວດິ່ງ,Ban Keoding,ban-keoding-1956953,1956953,20.042,104.139
11401880,Ban Keon,Ban Keon,ban-keon-11401880,11401880,20.091,104.963
1952788,ຄາ,Ban Kha,ban-kha-1952788,1952788,19.932,104.217
1956929,ຄາ,Ban Kha,ban-kha-1956929,1956929,20.041,104.439
1663056,Ban Khangnam,Ban Khangnam,ban-khangnam-1663056,1663056,19.933,104.267
1956930,Ban Khatinphou,Ban Khatinphou,ban-khatinphou-1956930,1956930,20.043,104.465
1662987,ຄໍ້,Ban Kho,ban-kho-1662987,1662987,20.008,104.629
1662964,Ban Khokkhan,Ban Khokkhan,ban-khokkhan-1662964,1662964,19.95,104.7
1662827,Ban Ko Kan,Ban Ko Kan,ban-ko-kan-1662827,1662827,19.983,104.333
1662817,ກໍ່ກຽງ,Ban Kokiang,ban-kokiang-1662817,1662817,19.95,104.85
1664656,ເກື້ອງ,Ban Kuang,ban-kuang-1664656,1664656,20.035,104.575
1952850,ລານ,Ban Lan,ban-lan-1952850,1952850,19.944,104.272
1662318,Ban Matkai,Ban Matkai,ban-matkai-1662318,1662318,19.979,104.651
1655198,ເມືອງຂັນ,Ban Muangkhan,ban-muangkhan-1655198,1655198,20.075,104.551
1655386,Ban Muangkiang,Ban Muangkiang,ban-muangkiang-1655386,1655386,20.154,104.761
1655129,Ban Muangphat,Ban Muangphat,ban-muangphat-1655129,1655129,19.971,104.665
1662076,ນາເມືອງ,Ban Nachong,ban-nachong-1662076,1662076,20.155,104.753
1662040,Ban Nadon,Ban Nadon,ban-nadon-1662040,1662040,20,104.617
1661953,Ban Nahi,Ban Nahi,ban-nahi-1661953,1661953,20.011,104.321
1954118,Ban Nakhoun,Ban Nakhoun,ban-nakhoun-1954118,1954118,19.884,104.776
1661698,ນາຫລາ້,Ban Nala,ban-nala-1661698,1661698,19.935,104.626
11401877,ນາລົກ,Ban Nalok,ban-nalok-11401877,11401877,20.103,104.865
1954111,ນ້ຳອີນ,Ban Nam-In,ban-nam-in-1954111,1954111,19.897,104.57
1654982,ນາມາດ,Ban Nama,ban-nama-1654982,1654982,20.043,104.536
1954123,ນ້ຳບົງ,Ban Nambong,ban-nambong-1954123,1954123,19.815,104.775
1661546,ນ້ຳຂຸນ,Ban Namkhoun,ban-namkhoun-1661546,1661546,19.8,104.767
11401875,Ban Nammon,Ban Nammon,ban-nammon-11401875,11401875,20.04,104.742
1654896,ນາມົນ,Ban Namon,ban-namon-1654896,1654896,20.166,104.734
1954120,Ban Namtai,Ban Namtai,ban-namtai-1954120,1954120,19.827,104.826
1952833,Ban Nangiou,Ban Nangiou,ban-nangiou-1952833,1952833,19.987,104.317
11401860,ນາງີ້ວ,Ban Nangiou,ban-nangiou-11401860,11401860,20.015,104.502
1661240,ນາໂພ,Ban Napho,ban-napho-1661240,1661240,19.998,104.234
1659644,Ban Napouk,Ban Napouk,ban-napouk-1659644,1659644,20.001,104.26
1661174,ນາຊາງ,Ban Nasang,ban-nasang-1661174,1661174,19.988,104.678
11401874,ນາແຊ່ວ,Ban Naxeo,ban-naxeo-11401874,11401874,20.005,104.715
8440838,Ban Nong Kamo,Ban Nong Kamo,ban-nong-kamo-8440838,8440838,19.944,104.294
1660792,Ban Nongkham,Ban Nongkham,ban-nongkham-1660792,1660792,19.996,104.161
1952791,Ban Nongkham,Ban Nongkham,ban-nongkham-1952791,1952791,19.997,104.161
1952786,ປ່າຫົກ,Ban Pahok,ban-pahok-1952786,1952786,19.914,104.173
1954121,Ban Pakhôm,Ban Pakhom,ban-pakhom-1954121,1954121,19.819,104.823
1655136,Ban Pao,Ban Pao,ban-pao-1655136,1655136,20.124,104.815
1660380,ປ່າວເນືອ,Ban Pao-Nua,ban-pao-nua-1660380,1660380,20.095,104.735
1954122,Ban Pha-Ngoyling,Ban Pha-Ngoyling,ban-pha-ngoyling-1954122,1954122,19.815,104.799
1956955,Ban Phadèng,Ban Phadeng,ban-phadeng-1956955,1956955,20.037,104.181
1660301,Ban Phahat,Ban Phahat,ban-phahat-1660301,1660301,19.986,104.474
1956956,Ban Phalèng,Ban Phaleng,ban-phaleng-1956956,1956956,20.031,104.188
11401856,Ban Phansam,Ban Phansam,ban-phansam-11401856,11401856,20.078,104.56
11401861,ພຽງດາຍ,Ban Phiangdan,ban-phiangdan-11401861,11401861,20.028,104.577
1653810,ພຽງຖິ່ນ,Ban Phianghin,ban-phianghin-1653810,1653810,20.067,104.556
1954107,ພຽງຄຳ,Ban Phiangkham,ban-phiangkham-1954107,1954107,19.97,104.677
1954117,ພຽງຄູນ,Ban Phiangkhoun,ban-phiangkhoun-1954117,1954117,19.888,104.753
11401862,ພຽງໂຮມ,Ban Phiangpoung,ban-phiangpoung-11401862,11401862,20.017,104.606
1653044,Ban Phua,Ban Phua,ban-phua-1653044,1653044,20.129,104.84
1952789,ປຸງບານ,Ban Poungban,ban-poungban-1952789,1952789,19.948,104.213
1952840,Ban Sankang,Ban Sankang,ban-sankang-1952840,1952840,19.99,104.441
1659134,Ban Songphou,Ban Songphou,ban-songphou-1659134,1659134,20.015,104.711
1659112,Ban Sôp-Houan,Ban Sop-Houan,ban-sop-houan-1659112,1659112,19.883,104.683
1653035,Ban Sôpchiang,Ban Sopchiang,ban-sopchiang-1653035,1653035,20.059,104.188
11401858,ສົບແກ້້ມ,Ban Sopkem,ban-sopkem-11401858,11401858,20.041,104.562
11401859,ສົບເປັງ,Ban Soppeng,ban-soppeng-11401859,11401859,20.036,104.517
1956923,Ban Sôptèp,Ban Soptep,ban-soptep-1956923,1956923,20.07,104.347
11401855,Ban Sôpting,Ban Sopting,ban-sopting-11401855,11401855,20.095,104.565
1659053,ສົບສານ,Ban Sopxa,ban-sopxa-1659053,1659053,19.979,104.635
1659052,Ban Sôpxan,Ban Sopxan,ban-sopxan-1659052,1659052,19.9,104.7
1952839,Ban Takhoay,Ban Takhoay,ban-takhoay-1952839,1952839,19.932,104.318
1658856,ເລົາ,Ban Tao,ban-tao-1658856,1658856,20.017,104.667
1658857,ເຕົ່າ,Ban Tao,ban-tao-1658857,1658857,19.895,104.742
11401878,ທ່າເຫຼົ້າ,Ban Thalao,ban-thalao-11401878,11401878,20.065,104.929
1658533,ຖີ່ນ,Ban Thin,ban-thin-1658533,1658533,20.008,104.638
11401857,Ban Tinhin,Ban Tinhin,ban-tinhin-11401857,11401857,20.066,104.55
1954108,ຕີນຜາ,Ban Tinpha,ban-tinpha-1954108,1954108,19.976,104.514
1952849,ຕີນພູ,Ban Tinphou,ban-tinphou-1952849,1952849,19.943,104.246
1956920,ຕອນ,Ban Ton,ban-ton-1956920,1956920,20.124,104.432
1658200,Ban Vatkik,Ban Vatkik,ban-vatkik-1658200,1658200,19.967,104.517
1653558,Ban Xaikoun,Ban Xaikoun,ban-xaikoun-1653558,1653558,20.137,104.473
1652200,Ban Xamtai,Ban Xamtai,ban-xamtai-1652200,1652200,19.99,104.635
1954106,ຊຳທອງ,Ban Xamthong,ban-xamthong-1954106,1954106,19.991,104.64
1655075,ຊຽງດີ,Ban Xiangdi,ban-xiangdi-1655075,1655075,19.927,104.612
1956954,Ban Xianggnot,Ban Xianggnot,ban-xianggnot-1956954,1956954,20.006,104.143
1652059,ຊຽງບານ,Ban Xiangvan,ban-xiangvan-1652059,1652059,20.15,104.378
1653841,Phou Nhin,Phou Nhin,phou-nhin-1653841,1653841,20.017,104.667
1653359,San Nua,San Nua,san-nua-1653359,1653359,19.967,104.683
1652466,Tien Niao,Tien Niao,tien-niao-1652466,1652466,19.95,104.8
7648328,Xamtay,Xamtay,xamtay-7648328,7648328,19.945,104.517
